{"businesses": [{"id": "w90OJIv0U1JBuRjyegKbBQ", "alias": "10q-chicken-evanston", "name": "10Q Chicken", "image_url": "https://s3-media2.fl.yelpcdn.com/bphoto/gcgCPG0iYr2ysYRh-aYRdw/o.jpg", "is_closed": false, "url": "https://www.yelp.com/biz/10q-chicken-evanston?adjust_creative=RRA-Na9gWyMAcpQuPUD2-w&utm_campaign=yelp_api_v3&utm_medium=api_v3_business_search&utm_source=RRA-Na9gWyMAcpQuPUD2-w", "review_count": 189, "categories": [{"alias": "chickenshop", "title": "Chicken Shop"}, {"alias": "korean", "title": "Korean"}], "rating": 4.5, "coordinates": {"latitude": 42.04816, "longitude": -87.68283}, "transactions": [], "price": "$$", "location": {"address1": "816 Church St", "address2": null, "address3": "", "city": "Evanston", "zip_code": "60201", "country": "US", "state": "IL", "display_address": ["816 Church St", "Evanston, IL 60201"]}, "phone": "+18478596100", "display_phone": "(847) 859-6100", "distance": 1082.3869281248901}, {"id": "x9-IcWixbknuqvZo-bCsiA", "alias": "soulwich-evanston", "name": "Soulwich", "image_url": "https://s3-media1.fl.yelpcdn.com/bphoto/_DkvD4PgLUPVPlKxY3qaDg/o.jpg", "is_closed": false, "url": "https://www.yelp.com/biz/soulwich-evanston?adjust_creative=RRA-Na9gWyMAcpQuPUD2-w&utm_campaign=yelp_api_v3&utm_medium=api_v3_business_search&utm_source=RRA-Na9gWyMAcpQuPUD2-w", "review_count": 566, "categories": [{"alias": "asianfusion", "title": "Asian Fusion"}, {"alias": "sandwiches", "title": "Sandwiches"}], "rating": 4.5, "coordinates": {"latitude": 42.0474421, "longitude": -87.6813617}, "transactions": ["delivery", "pickup"], "price": "$", "location": {"address1": "1634 Orrington Ave", "address2": "", "address3": "", "city": "Evanston", "zip_code": "60201", "country": "US", "state": "IL", "display_address": ["1634 Orrington Ave", "Evanston, IL 60201"]}, "phone": "+18473282222", "display_phone": "(847) 328-2222", "distance": 1218.9686248916341}, {"id": "-aDsII3zmou-1n0GFLLzOQ", "alias": "kokomo-evanston", "name": "Kokomo", "image_url": "https://s3-media1.fl.yelpcdn.com/bphoto/sG2yeL7LlrllgoUXmL6rjQ/o.jpg", "is_closed": false, "url": "https://www.yelp.com/biz/kokomo-evanston?adjust_creative=RRA-Na9gWyMAcpQuPUD2-w&utm_campaign=yelp_api_v3&utm_medium=api_v3_business_search&utm_source=RRA-Na9gWyMAcpQuPUD2-w", "review_count": 30, "categories": [{"alias": "korean", "title": "Korean"}, {"alias": "japanese", "title": "Japanese"}], "rating": 4.0, "coordinates": {"latitude": 42.04758, "longitude": -87.68059}, "transactions": ["delivery", "pickup"], "location": {"address1": "1639 Orrington Ave", "address2": null, "address3": "", "city": "Evanston", "zip_code": "60201", "country": "US", "state": "IL", "display_address": ["1639 Orrington Ave", "Evanston, IL 60201"]}, "phone": "+18474250045", "display_phone": "(847) 425-0045", "distance": 1256.924438272523}, {"id": "_RKjAoEewnQc5tveOBfQhA", "alias": "chicken-shack-evanston", "name": "Chicken Shack", "image_url": "https://s3-media1.fl.yelpcdn.com/bphoto/sv8CFiC-BA29MsoaVLtt5g/o.jpg", "is_closed": false, "url": "https://www.yelp.com/biz/chicken-shack-evanston?adjust_creative=RRA-Na9gWyMAcpQuPUD2-w&utm_campaign=yelp_api_v3&utm_medium=api_v3_business_search&utm_source=RRA-Na9gWyMAcpQuPUD2-w", "review_count": 263, "categories": [{"alias": "tradamerican", "title": "American (Traditional)"}, {"alias": "chicken_wings", "title": "Chicken Wings"}, {"alias": "fishnchips", "title": "Fish & Chips"}], "rating": 4.0, "coordinates": {"latitude": 42.05288, "longitude": -87.68743}, "transactions": ["delivery", "pickup"], "price": "$", "location": {"address1": "1925 Ridge Ave", "address2": "", "address3": "", "city": "Evanston", "zip_code": "60201", "country": "US", "state": "IL", "display_address": ["1925 Ridge Ave", "Evanston, IL 60201"]}, "phone": "+18473289360", "display_phone": "(847) 328-9360", "distance": 903.206154440048}, {"id": "6WyivUs3CjvIgXisWYWLug", "alias": "shinsen-evanston-evanston", "name": "Shinsen Evanston", "image_url": "https://s3-media4.fl.yelpcdn.com/bphoto/S0hVAduX__59HrCOicvXrA/o.jpg", "is_closed": false, "url": "https://www.yelp.com/biz/shinsen-evanston-evanston?adjust_creative=RRA-Na9gWyMAcpQuPUD2-w&utm_campaign=yelp_api_v3&utm_medium=api_v3_business_search&utm_source=RRA-Na9gWyMAcpQuPUD2-w", "review_count": 23, "categories": [{"alias": "sushi", "title": "Sushi Bars"}, {"alias": "thai", "title": "Thai"}, {"alias": "japanese", "title": "Japanese"}], "rating": 4.5, "coordinates": {"latitude": 42.0420605, "longitude": -87.68056283}, "transactions": [], "location": {"address1": "1322 Chicago Ave", "address2": "", "address3": null, "city": "Evanston", "zip_code": "60201", "country": "US", "state": "IL", "display_address": ["1322 Chicago Ave", "Evanston, IL 60201"]}, "phone": "+18474250077", "display_phone": "(847) 425-0077", "distance": 1420.2762416076237}, {"id": "XeFnIeu8twk8n1_sB1XK3Q", "alias": "stacked-and-folded-evanston-evanston-3", "name": "Stacked & Folded - Evanston", "image_url": "https://s3-media1.fl.yelpcdn.com/bphoto/uRO6zyH-vwzpKXe1fa662Q/o.jpg", "is_closed": false, "url": "https://www.yelp.com/biz/stacked-and-folded-evanston-evanston-3?adjust_creative=RRA-Na9gWyMAcpQuPUD2-w&utm_campaign=yelp_api_v3&utm_medium=api_v3_business_search&utm_source=RRA-Na9gWyMAcpQuPUD2-w", "review_count": 52, "categories": [{"alias": "salad", "title": "Salad"}, {"alias": "tacos", "title": "Tacos"}, {"alias": "sandwiches", "title": "Sandwiches"}], "rating": 4.5, "coordinates": {"latitude": 42.05795, "longitude": -87.68312}, "transactions": ["delivery", "pickup"], "price": "$$", "location": {"address1": "824 Noyes St", "address2": null, "address3": "", "city": "Evanston", "zip_code": "60201", "country": "US", "state": "IL", "display_address": ["824 Noyes St", "Evanston, IL 60201"]}, "phone": "+18473289100", "display_phone": "(847) 328-9100", "distance": 1587.8304988424309}, {"id": "WvJE5XZOj9P_elECgQ26Tw", "alias": "tomate-fresh-kitchen-evanston", "name": "Tomate Fresh Kitchen", "image_url": "https://s3-media2.fl.yelpcdn.com/bphoto/BJng1n644ARpZqKFn9rHkQ/o.jpg", "is_closed": false, "url": "https://www.yelp.com/biz/tomate-fresh-kitchen-evanston?adjust_creative=RRA-Na9gWyMAcpQuPUD2-w&utm_campaign=yelp_api_v3&utm_medium=api_v3_business_search&utm_source=RRA-Na9gWyMAcpQuPUD2-w", "review_count": 199, "categories": [{"alias": "latin", "title": "Latin American"}, {"alias": "mexican", "title": "Mexican"}], "rating": 4.5, "coordinates": {"latitude": 42.058274, "longitude": -87.683726}, "transactions": ["delivery", "pickup"], "price": "$", "location": {"address1": "914 Noyes St", "address2": "", "address3": "", "city": "Evanston", "zip_code": "60201", "country": "US", "state": "IL", "display_address": ["914 Noyes St", "Evanston, IL 60201"]}, "phone": "+18479050194", "display_phone": "(847) 905-0194", "distance": 1545.796870735714}, {"id": "9uEBUbM9vHFmz8nMRX99hA", "alias": "buffalo-joes-evanston", "name": "Buffalo Joe's", "image_url": "https://s3-media1.fl.yelpcdn.com/bphoto/FAMr5LJS5yucXT2ig0sO3Q/o.jpg", "is_closed": false, "url": "https://www.yelp.com/biz/buffalo-joes-evanston?adjust_creative=RRA-Na9gWyMAcpQuPUD2-w&utm_campaign=yelp_api_v3&utm_medium=api_v3_business_search&utm_source=RRA-Na9gWyMAcpQuPUD2-w", "review_count": 723, "categories": [{"alias": "chicken_wings", "title": "Chicken Wings"}, {"alias": "burgers", "title": "Burgers"}, {"alias": "sandwiches", "title": "Sandwiches"}], "rating": 4.0, "coordinates": {"latitude": 42.049913316724, "longitude": -87.682541892338}, "transactions": [], "price": "$", "location": {"address1": "812 Clark St", "address2": "", "address3": "", "city": "Evanston", "zip_code": "60201", "country": "US", "state": "IL", "display_address": ["812 Clark St", "Evanston, IL 60201"]}, "phone": "+18473285525", "display_phone": "(847) 328-5525", "distance": 1133.797245862924}, {"id": "O42tGzbjDsAlS58qv2RMiQ", "alias": "fridas-breakfast-and-lunch-evanston-2", "name": "Frida's Breakfast & Lunch", "image_url": "https://s3-media3.fl.yelpcdn.com/bphoto/3OS55L43j4sEV-U9CQTpOg/o.jpg", "is_closed": false, "url": "https://www.yelp.com/biz/fridas-breakfast-and-lunch-evanston-2?adjust_creative=RRA-Na9gWyMAcpQuPUD2-w&utm_campaign=yelp_api_v3&utm_medium=api_v3_business_search&utm_source=RRA-Na9gWyMAcpQuPUD2-w", "review_count": 59, "categories": [{"alias": "breakfast_brunch", "title": "Breakfast & Brunch"}, {"alias": "mexican", "title": "Mexican"}], "rating": 4.5, "coordinates": {"latitude": 42.04789, "longitude": -87.68054}, "transactions": ["delivery", "pickup"], "price": "$$", "location": {"address1": "618 Church St", "address2": null, "address3": "", "city": "Evanston", "zip_code": "60201", "country": "US", "state": "IL", "display_address": ["618 Church St", "Evanston, IL 60201"]}, "phone": "+18478596342", "display_phone": "(847) 859-6342", "distance": 1310.6937619316284}, {"id": "9LoUCGB2F2zwXY7LiI1Isg", "alias": "taco-diablo-evanston", "name": "Taco Diablo", "image_url": "https://s3-media4.fl.yelpcdn.com/bphoto/O900UmkgWFd-s2HJmdVRpA/o.jpg", "is_closed": false, "url": "https://www.yelp.com/biz/taco-diablo-evanston?adjust_creative=RRA-Na9gWyMAcpQuPUD2-w&utm_campaign=yelp_api_v3&utm_medium=api_v3_business_search&utm_source=RRA-Na9gWyMAcpQuPUD2-w", "review_count": 357, "categories": [{"alias": "mexican", "title": "Mexican"}, {"alias": "bars", "title": "Bars"}], "rating": 4.0, "coordinates": {"latitude": 42.0468879038071, "longitude": -87.6863329067459}, "transactions": ["delivery", "pickup"], "price": "$$", "location": {"address1": "1026 Davis St", "address2": null, "address3": "", "city": "Evanston", "zip_code": "60201", "country": "US", "state": "IL", "display_address": ["1026 Davis St", "Evanston, IL 60201"]}, "phone": "+18478694343", "display_phone": "(847) 869-4343", "distance": 800.7922799917784}, {"id": "x-puGC2VpAD07El2_r4Bcg", "alias": "ten-mile-house-evanston", "name": "Ten Mile House", "image_url": "https://s3-media1.fl.yelpcdn.com/bphoto/jwod6F1qipKRDvtTvA6EcQ/o.jpg", "is_closed": false, "url": "https://www.yelp.com/biz/ten-mile-house-evanston?adjust_creative=RRA-Na9gWyMAcpQuPUD2-w&utm_campaign=yelp_api_v3&utm_medium=api_v3_business_search&utm_source=RRA-Na9gWyMAcpQuPUD2-w", "review_count": 263, "categories": [{"alias": "comfortfood", "title": "Comfort Food"}, {"alias": "pizza", "title": "Pizza"}, {"alias": "burgers", "title": "Burgers"}], "rating": 4.0, "coordinates": {"latitude": 42.0639992, "longitude": -87.6962128}, "transactions": ["delivery", "pickup"], "price": "$$", "location": {"address1": "1700 Central St", "address2": "", "address3": "", "city": "Evanston", "zip_code": "60201", "country": "US", "state": "IL", "display_address": ["1700 Central St", "Evanston, IL 60201"]}, "phone": "+18479050669", "display_phone": "(847) 905-0669", "distance": 1827.3432103185262}, {"id": "ccr996t6e89u6f8XKNXLgA", "alias": "edzos-burger-shop-evanston", "name": "Edzo's Burger Shop", "image_url": "https://s3-media4.fl.yelpcdn.com/bphoto/1ovqDXHl2QJ2AwzlhPBk-Q/o.jpg", "is_closed": false, "url": "https://www.yelp.com/biz/edzos-burger-shop-evanston?adjust_creative=RRA-Na9gWyMAcpQuPUD2-w&utm_campaign=yelp_api_v3&utm_medium=api_v3_business_search&utm_source=RRA-Na9gWyMAcpQuPUD2-w", "review_count": 737, "categories": [{"alias": "burgers", "title": "Burgers"}], "rating": 4.0, "coordinates": {"latitude": 42.046047, "longitude": -87.681241}, "transactions": ["delivery", "pickup"], "price": "$$", "location": {"address1": "1571 Sherman Ave", "address2": "", "address3": "", "city": "Evanston", "zip_code": "60201", "country": "US", "state": "IL", "display_address": ["1571 Sherman Ave", "Evanston, IL 60201"]}, "phone": "+18478643396", "display_phone": "(847) 864-3396", "distance": 1202.2542128230539}, {"id": "0b6AU869xq6KXdK3NtVJnw", "alias": "kabul-house-evanston", "name": "Kabul House", "image_url": "https://s3-media1.fl.yelpcdn.com/bphoto/5ChhKbwKQD6EpINR9hxhZw/o.jpg", "is_closed": false, "url": "https://www.yelp.com/biz/kabul-house-evanston?adjust_creative=RRA-Na9gWyMAcpQuPUD2-w&utm_campaign=yelp_api_v3&utm_medium=api_v3_business_search&utm_source=RRA-Na9gWyMAcpQuPUD2-w", "review_count": 907, "categories": [{"alias": "afghani", "title": "Afghan"}, {"alias": "halal", "title": "Halal"}, {"alias": "seafood", "title": "Seafood"}], "rating": 4.5, "coordinates": {"latitude": 42.04066, "longitude": -87.70823}, "transactions": ["delivery", "pickup", "restaurant_reservation"], "price": "$$", "location": {"address1": "2424 Dempster St", "address2": null, "address3": "", "city": "Evanston", "zip_code": "60202", "country": "US", "state": "IL", "display_address": ["2424 Dempster St", "Evanston, IL 60202"]}, "phone": "+18476743830", "display_phone": "(847) 674-3830", "distance": 1281.697377639789}, {"id": "znAow_NHsTKGbpC_5x7fkg", "alias": "527-cafe-evanston", "name": "527 Cafe", "image_url": "https://s3-media1.fl.yelpcdn.com/bphoto/wSJWYYwI6oYw8MIb0nGIzg/o.jpg", "is_closed": false, "url": "https://www.yelp.com/biz/527-cafe-evanston?adjust_creative=RRA-Na9gWyMAcpQuPUD2-w&utm_campaign=yelp_api_v3&utm_medium=api_v3_business_search&utm_source=RRA-Na9gWyMAcpQuPUD2-w", "review_count": 304, "categories": [{"alias": "taiwanese", "title": "Taiwanese"}, {"alias": "chinese", "title": "Chinese"}, {"alias": "bubbletea", "title": "Bubble Tea"}], "rating": 4.0, "coordinates": {"latitude": 42.0461827, "longitude": -87.6790856}, "transactions": ["delivery", "pickup"], "price": "$", "location": {"address1": "527 Davis St", "address2": "", "address3": "", "city": "Evanston", "zip_code": "60201", "country": "US", "state": "IL", "display_address": ["527 Davis St", "Evanston, IL 60201"]}, "phone": "+18473322233", "display_phone": "(847) 332-2233", "distance": 1404.3253791829795}, {"id": "rlHZhsiPUqGwNohJUC4imw", "alias": "amanecer-taco-shop-evanston-3", "name": "Amanecer Taco Shop", "image_url": "https://s3-media1.fl.yelpcdn.com/bphoto/FiskPns2LyAhoq8o0HZ2LA/o.jpg", "is_closed": false, "url": "https://www.yelp.com/biz/amanecer-taco-shop-evanston-3?adjust_creative=RRA-Na9gWyMAcpQuPUD2-w&utm_campaign=yelp_api_v3&utm_medium=api_v3_business_search&utm_source=RRA-Na9gWyMAcpQuPUD2-w", "review_count": 44, "categories": [{"alias": "tacos", "title": "Tacos"}], "rating": 4.5, "coordinates": {"latitude": 42.0337801, "longitude": -87.6784112}, "transactions": [], "location": {"address1": "512 Main St", "address2": null, "address3": "", "city": "Evanston", "zip_code": "60202", "country": "US", "state": "IL", "display_address": ["512 Main St", "Evanston, IL 60202"]}, "phone": "+18476443575", "display_phone": "(847) 644-3575", "distance": 2129.16172092812}, {"id": "nCGG7A5FV32XfGPwTM68sg", "alias": "the-supreme-burrito-1-evanston-3", "name": "The Supreme Burrito #1", "image_url": "https://s3-media2.fl.yelpcdn.com/bphoto/B6viuSX1budONnbaYwI2jg/o.jpg", "is_closed": false, "url": "https://www.yelp.com/biz/the-supreme-burrito-1-evanston-3?adjust_creative=RRA-Na9gWyMAcpQuPUD2-w&utm_campaign=yelp_api_v3&utm_medium=api_v3_business_search&utm_source=RRA-Na9gWyMAcpQuPUD2-w", "review_count": 85, "categories": [{"alias": "mexican", "title": "Mexican"}], "rating": 4.0, "coordinates": {"latitude": 42.033553, "longitude": -87.698901}, "transactions": [], "price": "$", "location": {"address1": "843 Dodge Ave", "address2": "", "address3": "", "city": "Evanston", "zip_code": "60202", "country": "US", "state": "IL", "display_address": ["843 Dodge Ave", "Evanston, IL 60202"]}, "phone": "+18477332927", "display_phone": "(847) 733-2927", "distance": 1597.3545260459505}, {"id": "ATHtyRxOwdogoQRu-xCP9g", "alias": "litehouse-whole-food-grill-evanston", "name": "Litehouse Whole Food Grill", "image_url": "https://s3-media3.fl.yelpcdn.com/bphoto/LGPps3B5nOe-gBpQdMrpqQ/o.jpg", "is_closed": false, "url": "https://www.yelp.com/biz/litehouse-whole-food-grill-evanston?adjust_creative=RRA-Na9gWyMAcpQuPUD2-w&utm_campaign=yelp_api_v3&utm_medium=api_v3_business_search&utm_source=RRA-Na9gWyMAcpQuPUD2-w", "review_count": 1, "categories": [{"alias": "caribbean", "title": "Caribbean"}, {"alias": "tradamerican", "title": "American (Traditional)"}], "rating": 3.0, "coordinates": {"latitude": 42.0485202143789, "longitude": -87.6987009352745}, "transactions": [], "location": {"address1": "1823 Church St", "address2": "", "address3": null, "city": "Evanston", "zip_code": "60201", "country": "US", "state": "IL", "display_address": ["1823 Church St", "Evanston, IL 60201"]}, "phone": "", "display_phone": "", "distance": 241.85036037187422}, {"id": "BFEdIfL23ihfwTO1NPj6tA", "alias": "soban-korea-evanston-2", "name": "Soban Korea", "image_url": "https://s3-media2.fl.yelpcdn.com/bphoto/bgsjXD-_UgMIrXbrXnec_w/o.jpg", "is_closed": false, "url": "https://www.yelp.com/biz/soban-korea-evanston-2?adjust_creative=RRA-Na9gWyMAcpQuPUD2-w&utm_campaign=yelp_api_v3&utm_medium=api_v3_business_search&utm_source=RRA-Na9gWyMAcpQuPUD2-w", "review_count": 49, "categories": [{"alias": "korean", "title": "Korean"}], "rating": 4.0, "coordinates": {"latitude": 42.0587, "longitude": -87.6826}, "transactions": [], "location": {"address1": "819 Noyes St", "address2": "", "address3": null, "city": "Evanston", "zip_code": "60201", "country": "US", "state": "IL", "display_address": ["819 Noyes St", "Evanston, IL 60201"]}, "phone": "+18478694344", "display_phone": "(847) 869-4344", "distance": 1642.8769052431269}, {"id": "CJWVmhX7gSP8yNGGnAa9Xw", "alias": "ovo-frito-cafe-evanston", "name": "Ovo Frito Cafe", "image_url": "https://s3-media2.fl.yelpcdn.com/bphoto/0tWcXZGzoBTE9AnnuJ2dsQ/o.jpg", "is_closed": false, "url": "https://www.yelp.com/biz/ovo-frito-cafe-evanston?adjust_creative=RRA-Na9gWyMAcpQuPUD2-w&utm_campaign=yelp_api_v3&utm_medium=api_v3_business_search&utm_source=RRA-Na9gWyMAcpQuPUD2-w", "review_count": 308, "categories": [{"alias": "breakfast_brunch", "title": "Breakfast & Brunch"}], "rating": 4.5, "coordinates": {"latitude": 42.05334, "longitude": -87.68501}, "transactions": ["delivery", "pickup"], "price": "$$", "location": {"address1": "1936 Maple Ave", "address2": null, "address3": "", "city": "Evanston", "zip_code": "60201", "country": "US", "state": "IL", "display_address": ["1936 Maple Ave", "Evanston, IL 60201"]}, "phone": "+18478596966", "display_phone": "(847) 859-6966", "distance": 1105.0322382703864}, {"id": "ss_w9TZiXBnuBrTfrMtG4Q", "alias": "anto-pizza-and-pasta-chicago-chicago", "name": "Anto Pizza & Pasta Chicago", "image_url": "https://s3-media3.fl.yelpcdn.com/bphoto/-fbqspcnRLDcBVYyE50NpQ/o.jpg", "is_closed": false, "url": "https://www.yelp.com/biz/anto-pizza-and-pasta-chicago-chicago?adjust_creative=RRA-Na9gWyMAcpQuPUD2-w&utm_campaign=yelp_api_v3&utm_medium=api_v3_business_search&utm_source=RRA-Na9gWyMAcpQuPUD2-w", "review_count": 68, "categories": [{"alias": "italian", "title": "Italian"}], "rating": 5.0, "coordinates": {"latitude": 42.01578, "longitude": -87.66985}, "transactions": ["delivery", "pickup"], "location": {"address1": "1547 W Jarvis", "address2": null, "address3": "", "city": "Chicago", "zip_code": "60626", "country": "US", "state": "IL", "display_address": ["1547 W Jarvis", "Chicago, IL 60626"]}, "phone": "+17739427427", "display_phone": "(773) 942-7427", "distance": 4152.078832601677}], "total": 1700, "region": {"center": {"longitude": -87.69596099853516, "latitude": 42.047751464985495}}}